City_ID,City,Lat,Lng,Max Temp,Humidity,Cloudiness,Wind Speed,Country,Date
0,vorgashor,67.5833,63.95,6.07,99,99,4.72,RU,1727406119
1,baise city,23.8997,106.6133,30.19,99,69,1.45,CN,1727406120
2,port-aux-francais,-49.35,70.2167,3.99,82,100,17.0,TF,1727406122
3,colonia,50.9333,6.95,14.42,73,0,3.6,DE,1727406008
4,grytviken,-54.2811,-36.5092,-1.37,76,59,8.13,GS,1727406124
5,saint joseph,39.7686,-94.8466,16.79,80,0,1.78,US,1727406022
6,ushuaia,-54.8,-68.3,4.81,81,75,11.32,AR,1727405856
7,yellowknife,62.456,-114.3525,8.29,92,75,2.57,CA,1727406080
8,waitangi,-43.9535,-176.5597,9.34,87,98,4.02,NZ,1727406128
9,invercargill,-46.4,168.35,6.68,92,100,3.13,NZ,1727406129
10,keflavik,64.0049,-22.5624,6.24,81,75,1.54,IS,1727406075
11,edinburgh of the seven seas,-37.0676,-12.3116,12.14,91,100,4.25,SH,1727406133
12,thompson,55.7435,-97.8558,21.09,64,75,3.09,CA,1727406134
13,puerto natales,-51.7236,-72.4875,5.2,92,100,5.25,CL,1727406135
14,mili,6.0815,171.735,28.99,73,11,4.3,MH,1727406136
15,wuhai,39.6647,106.8122,23.19,51,7,10.44,CN,1727406137
16,utrik,11.2278,169.8474,28.74,76,100,6.0,MH,1727406139
17,jamestown,42.097,-79.2353,17.8,84,0,3.6,US,1727406140
18,galliano,29.4422,-90.2992,23.0,64,0,4.12,US,1727406141
19,mejit,10.2753,170.8646,28.55,76,71,5.27,MH,1727405969
20,tazovsky,67.4667,78.7,-0.36,83,100,5.14,RU,1727406143
21,adamstown,-25.066,-130.1015,21.52,89,86,4.12,PN,1727406145
22,papatowai,-46.5619,169.4708,7.06,87,95,7.01,NZ,1727406146
23,tiksi,71.6872,128.8694,0.95,100,100,5.43,RU,1727406148
24,tolanaro,-25.0319,46.9987,22.04,94,20,1.03,MG,1727406149
25,petropavlovsk-kamchatsky,53.0452,158.6483,15.33,44,0,6.0,RU,1727406150
26,bethel,41.3712,-73.414,21.68,89,100,0.45,US,1727406151
27,vadso,70.0744,29.7487,6.09,93,75,4.12,NO,1727406058
28,ponta delgada,37.7333,-25.6667,21.4,78,20,1.54,PT,1727406153
29,enewetak,11.3474,162.3373,28.89,75,21,5.36,MH,1727406154
30,boende,-0.2167,20.8667,21.14,96,96,0.94,CD,1727406155
31,puerto baquerizo moreno,-0.9,-89.6,20.03,88,97,5.11,EC,1727406047
32,punta arenas,-53.15,-70.9167,5.06,87,75,11.32,CL,1727406157
33,tokar,18.4254,37.729,27.69,76,15,1.48,SD,1727406159
34,akrehamn,59.2667,5.1833,8.14,81,45,4.12,NO,1727406160
35,margaret river,-33.95,115.0667,13.68,65,61,7.07,AU,1727406161
36,bilibino,68.0546,166.4372,-2.16,74,99,1.04,RU,1727406162
37,iskateley,67.6803,53.1512,11.28,91,91,7.75,RU,1727406164
38,isafjordur,66.0755,-23.124,1.64,98,100,2.64,IS,1727406165
39,kapa'a,22.0752,-159.319,27.28,68,98,2.24,US,1727406166
40,blackmans bay,-43.0167,147.3167,15.96,54,21,0.45,AU,1727406167
41,nuuk,64.1835,-51.7216,6.34,75,40,2.57,GL,1727406168
42,nantucket,41.2835,-70.0995,19.06,94,75,7.18,US,1727406170
43,amga,60.8953,131.9608,13.48,63,100,3.9,RU,1727406171
44,albany,42.6001,-73.9662,16.82,81,100,1.28,US,1727406007
45,alofi,-19.0595,-169.9187,25.94,61,75,8.23,NU,1727406173
46,afaahiti,-17.75,-149.2833,25.3,81,22,4.24,PF,1727406174
47,sheboygan,43.7333,-87.9334,16.32,91,0,0.0,US,1727405878
48,seguela,7.9611,-6.6731,21.38,99,96,1.45,CI,1727405913
49,eyl,7.9803,49.8164,26.01,63,97,7.96,SO,1727406180
50,tomatlan,19.9333,-105.25,25.54,96,100,1.95,MX,1727406181
51,mecca,21.4267,39.8261,30.38,37,58,0.91,SA,1727406006
52,burang,30.25,81.1667,9.15,73,95,1.8,CN,1727406183
53,la passe,45.5549,-0.8967,15.4,76,100,10.47,FR,1727406184
54,bethanie,-26.4833,17.15,20.11,15,99,1.15,NA,1727406020
55,kudahuvadhoo,2.6708,72.8944,27.73,74,100,8.18,MV,1727406188
56,coahuayana de hidalgo,18.7,-103.6583,22.93,94,100,1.85,MX,1727406189
57,vila velha,-20.3297,-40.2925,23.97,82,75,5.81,BR,1727406195
58,verkhniy baskunchak,48.2256,46.7217,9.62,44,11,4.46,RU,1727406196
59,hailar,49.2,119.7,18.42,37,76,5.12,CN,1727406197
60,saint-louis,16.3333,-15.0,26.93,75,100,1.98,SN,1727406199
61,vilyuchinsk,52.9306,158.4028,16.15,66,100,3.38,RU,1727405930
62,sawakin,19.1059,37.3321,28.67,64,10,2.16,SD,1727406201
63,palmas,-10.2128,-48.3603,27.93,57,0,2.06,BR,1727405726
64,chibougamau,49.9168,-74.3659,12.79,100,100,2.06,CA,1727406203
65,stanley,54.868,-1.6985,9.04,83,75,6.69,GB,1727406204
66,okhotsk,59.3833,143.3,10.48,58,1,1.38,RU,1727406205
67,fale old settlement,-9.3852,-171.2468,25.34,83,100,3.85,TK,1727406113
68,kavarna,43.4333,28.3333,19.21,98,50,4.25,BG,1727406208
69,natal,-5.795,-35.2094,25.12,73,20,5.66,BR,1727406138
70,udachny,66.4167,112.4,3.32,69,75,2.84,RU,1727406211
71,port lincoln,-34.7333,135.8667,16.01,54,28,7.76,AU,1727406213
72,bilmak,47.3624,36.6511,15.18,56,72,5.53,UA,1727406215
73,caleta de carquin,-11.0925,-77.6267,16.71,82,81,3.74,PE,1727406216
74,djambala,-2.5447,14.7533,20.79,90,100,2.4,CG,1727406217
75,bahia de kino,28.8333,-111.9333,32.17,37,0,5.08,MX,1727406218
76,alaghsas,17.0187,8.0168,31.97,25,28,4.41,NE,1727406219
77,ribeira grande,38.5167,-28.7,23.76,86,100,6.26,PT,1727406220
78,escarcega,18.6089,-90.7454,23.29,99,76,0.56,MX,1727406222
79,iqaluit,63.7506,-68.5145,3.85,93,75,0.0,CA,1727406014
80,hobyo,5.3505,48.5268,24.51,82,83,9.58,SO,1727406225
81,hailey,43.5196,-114.3153,14.33,49,0,1.34,US,1727406146
82,germencik,37.8706,27.6028,15.81,50,0,1.46,TR,1727406227
83,kaa-khem,51.6833,94.7333,7.02,44,78,1.45,RU,1727406228
84,ilulissat,69.2167,-51.1,5.01,65,100,0.0,GL,1727406229
85,hithadhoo,-0.6,73.0833,28.13,73,100,6.46,MV,1727406231
86,jagdalpur,19.0667,82.0333,25.61,83,83,4.96,IN,1727406232
87,barra de santo antonio,-9.4047,-35.5072,23.99,80,14,4.57,BR,1727406030
88,nalut,30.3333,10.85,27.3,39,0,5.66,LY,1727406234
89,alingsas,57.9303,12.5335,10.44,96,100,4.23,SE,1727406203
90,ntcheu,-14.8203,34.6359,18.59,45,0,0.62,MW,1727406236
91,anadyr,64.75,177.4833,4.28,64,100,2.0,RU,1727406010
92,ulladulla,-35.35,150.4667,11.88,74,100,2.92,AU,1727406238
93,burkburnett,34.0979,-98.5706,23.36,51,0,1.54,US,1727405884
94,tweed heads,-28.1817,153.547,20.1,88,100,5.66,AU,1727406241
95,coruripe,-10.1256,-36.1756,22.4,85,42,3.59,BR,1727406243
96,kerikeri,-35.2268,173.9474,15.51,87,100,3.13,NZ,1727406244
97,fuglafjordur,62.244,-6.814,5.35,72,100,10.82,FO,1727406247
98,galeana,24.8333,-100.0667,14.43,97,73,2.04,MX,1727406248
99,longyearbyen,78.2186,15.6401,-0.09,64,75,8.75,SJ,1727405935
100,puerto ayora,-0.7393,-90.3518,20.31,95,100,3.13,EC,1727406251
101,port alfred,-33.5906,26.891,13.43,95,36,1.48,ZA,1727406252
102,capao da canoa,-29.7456,-50.0097,16.77,95,100,4.32,BR,1727406081
103,boulder city,35.9786,-114.8325,32.18,11,0,3.6,US,1727405979
104,taghazout,30.5426,-9.7112,20.64,88,75,2.93,MA,1727406255
105,alice springs,-23.7,133.8833,24.75,27,0,5.14,AU,1727405910
106,verdal,63.7933,11.4817,6.48,88,96,1.21,NO,1727406257
107,avarua,-21.2078,-159.775,23.03,64,40,3.6,CK,1727406259
108,argostolion,38.1811,20.489,20.97,51,2,0.61,GR,1727406261
109,arteche,12.2645,125.4048,29.73,72,75,2.29,PH,1727406262
110,dulovo,43.8167,27.15,17.01,70,41,3.92,BG,1727406263
111,minas de marcona,-15.2119,-75.1103,11.05,87,89,4.21,PE,1727406264
112,new corella,7.6,125.8667,31.84,62,47,1.44,PH,1727406265
113,rongelap,11.1635,166.8941,28.95,74,90,6.68,MH,1727406266
114,nkowakowa,-23.8878,30.2871,17.81,63,3,0.15,ZA,1727406267
115,smithers,54.7804,-127.1743,6.18,87,100,3.6,CA,1727406269
116,lebu,-37.6167,-73.65,6.35,82,100,2.49,CL,1727406271
117,sao felix do xingu,-6.6447,-51.995,24.78,72,41,0.73,BR,1727406273
118,mary,37.0,62.5,17.6,36,0,3.1,TM,1727406274
119,willowmore,-33.2926,23.4895,10.01,83,9,1.34,ZA,1727406275
120,whitehorse,60.7161,-135.0538,6.84,65,71,2.24,CA,1727406217
121,badger,64.8,-147.5333,6.66,84,75,2.57,US,1727406277
122,la'ie,21.6477,-157.9253,28.66,76,83,0.89,US,1727406278
123,kulunda,52.566,78.9385,5.53,57,97,4.28,RU,1727406280
124,happy valley-goose bay,53.3168,-60.3315,8.17,81,20,1.03,CA,1727406056
125,jalai nur,49.45,117.7,11.63,59,100,1.88,CN,1727406282
126,selfoss,63.9331,-20.9971,2.47,84,92,2.26,IS,1727406024
127,guerrero negro,27.9769,-114.0611,18.86,89,1,8.15,MX,1727406285
128,vilyuysk,63.7553,121.6247,4.82,72,100,2.1,RU,1727406287
129,luderitz,-26.6481,15.1594,16.06,55,100,6.29,NA,1727406289
130,martapura,-3.4167,114.85,32.05,62,20,4.12,ID,1727406290
131,caluula,11.9661,50.7569,28.29,80,59,2.85,SO,1727406292
132,hamilton,39.1834,-84.5333,20.79,93,100,1.34,US,1727406030
133,carnarvon,-24.8667,113.6333,20.72,59,100,4.88,AU,1727406022
134,broome,42.2506,-75.833,15.95,81,100,0.45,US,1727406296
135,west island,-12.1568,96.8225,27.99,74,75,4.12,CC,1727406297
136,georgetown,5.4112,100.3354,30.96,78,20,1.54,MY,1727406298
137,constantia,44.1833,28.65,17.61,86,60,4.72,RO,1727406237
138,wailua homesteads,22.0669,-159.378,27.44,74,40,6.69,US,1727406301
139,kristiansund,63.1115,7.732,7.36,81,75,2.06,NO,1727406302
140,howrah,22.5892,88.3103,29.0,89,40,5.66,IN,1727406303
141,kivioli,59.3531,26.9711,13.97,92,100,6.32,EE,1727406304
142,dakhla,23.6848,-15.958,20.75,81,50,7.53,EH,1727406305
143,hilo,19.7297,-155.09,26.16,85,75,1.54,US,1727406306
144,college,64.8569,-147.8028,6.71,82,75,2.57,US,1727406307
145,port elizabeth,-33.918,25.5701,13.16,91,0,1.03,ZA,1727405997
146,vorkuta,67.5,64.0,6.16,99,99,4.83,RU,1727405964
147,entebbe,0.0644,32.4469,20.18,88,20,1.54,UG,1727406311
148,sundargarh,22.1167,84.0333,26.74,85,100,1.78,IN,1727406312
149,lichtenburg,-26.152,26.1597,12.74,15,71,3.23,ZA,1727406313
150,pechora,65.1472,57.2244,8.34,96,98,3.98,RU,1727406314
151,saint-benoit,-21.038,55.7194,21.04,79,95,4.71,RE,1727406315
152,langepas,61.2544,75.2124,0.15,79,80,2.42,RU,1727406317
153,aasiaat,68.7098,-52.8699,1.98,73,100,1.05,GL,1727406072
154,tisul',55.7611,88.3122,2.43,81,99,4.63,RU,1727406319
155,mount pearl,47.5166,-52.7813,11.19,96,100,2.06,CA,1727406321
156,bredasdorp,-34.5322,20.0403,13.13,90,96,0.72,ZA,1727406322
157,queenstown,-31.8976,26.8753,8.03,83,38,0.96,ZA,1727406083
158,namdrik,5.5994,168.1028,29.35,67,7,2.6,MH,1727406325
159,yumbe,3.4651,31.2469,17.96,92,78,0.23,UG,1727406326
160,kodiak,57.79,-152.4072,7.73,71,100,2.06,US,1727406327
161,katsuura,35.1333,140.3,23.07,96,100,3.16,JP,1727406328
162,east london,-33.0153,27.9116,15.15,75,20,1.71,ZA,1727406035
163,rudbar,30.15,62.6,22.35,38,0,8.79,AF,1727406331
164,kill devil hills,36.0307,-75.676,24.99,89,0,2.57,US,1727406332
165,pontianak,-0.0333,109.3333,30.99,74,75,1.03,ID,1727406334
166,at-bashi,41.1702,75.8106,8.91,76,97,2.06,KG,1727406335
167,tralee,52.2704,-9.7026,9.2,86,99,7.95,IE,1727406337
168,mersa matruh,31.3525,27.2453,24.11,60,0,2.57,EG,1727406338
169,nova sintra,14.8667,-24.7167,26.67,84,100,1.67,CV,1727406339
170,pontes e lacerda,-15.2261,-59.3353,28.65,47,22,3.6,BR,1727406113
171,wenchang,30.904,118.4887,28.28,62,0,4.72,CN,1727406342
172,bucerias,20.75,-105.3333,29.99,84,75,0.0,MX,1727406337
173,harstad,68.799,16.5293,4.53,90,100,4.02,NO,1727406174
174,domanic,39.8,29.6167,15.27,63,0,0.96,TR,1727406345
175,balkashino,52.5167,68.7667,5.31,57,100,4.28,KZ,1727406346
176,dudinka,69.4058,86.1778,-0.11,89,100,4.38,RU,1727405920
177,port mathurin,-19.6833,63.4167,22.41,76,3,8.84,MU,1727406348
178,egilsstadir,65.2653,-14.3948,0.95,100,75,3.09,IS,1727406021
179,red hill,33.9996,-79.2581,25.48,1,100,8.09,US,1727406350
180,sievi,63.9,24.5,6.0,87,100,2.01,FI,1727406351
181,al ghayzah,16.2079,52.176,26.4,83,87,1.83,YE,1727406354
182,arno,60.1167,18.6333,13.33,96,100,2.65,SE,1727406355
183,sorong,-0.8833,131.25,28.43,70,100,2.25,ID,1727406356
184,olonkinbyen,70.9221,-8.7187,-1.45,95,100,14.53,SJ,1727406357
185,el calafate,-50.3408,-72.2768,5.3,79,9,7.67,AR,1727406244
186,misratah,32.3754,15.0925,24.74,68,0,3.85,LY,1727406359
187,suomussalmi,64.8869,28.9078,4.72,95,83,2.01,FI,1727406360
188,urangan,-25.3,152.9,19.51,88,98,6.86,AU,1727406110
189,manado,1.487,124.8455,28.43,83,40,3.6,ID,1727406363
190,tura,25.5198,90.2201,23.76,94,100,1.03,IN,1727406365
191,golyshmanovo,56.3979,68.3728,7.14,86,100,2.45,RU,1727406366
192,nemuro,43.3236,145.575,16.76,96,100,5.28,JP,1727406367
193,brisas de zicatela,15.8369,-97.0419,24.82,93,100,2.93,MX,1727406368
194,lowestoft,52.4752,1.7516,11.68,92,100,8.19,GB,1727406369
195,coquimbo,-29.9533,-71.3436,12.85,87,0,2.57,CL,1727405936
196,otjimbingwe,-22.35,16.1333,25.25,28,60,1.56,NA,1727406372
197,kapuskasing,49.4169,-82.4331,11.05,100,0,0.0,CA,1727406118
198,ust-nera,64.5667,143.2,6.04,80,93,2.43,RU,1727406375
199,kuytun,54.3419,101.5036,5.83,53,33,1.27,RU,1727406376
200,chonchi,-42.6128,-73.8092,5.62,93,100,1.09,CL,1727405987
201,faro,37.0194,-7.9322,17.88,94,0,2.57,PT,1727406378
202,flin flon,54.7682,-101.865,11.83,73,94,8.15,CA,1727406144
203,am timan,11.0297,20.2827,24.17,81,9,1.01,TD,1727406381
204,kingston,17.997,-76.7936,28.53,79,20,4.12,JM,1727406045
205,saurimo,-9.6608,20.3916,19.96,45,17,1.05,AO,1727406384
206,isangel,-19.55,169.2667,28.06,57,40,5.66,VU,1727405907
207,tyuratam,45.6507,63.3156,9.48,35,0,6.2,KZ,1727406386
208,aykhal,66.0,111.5,1.12,76,93,3.71,RU,1727406389
209,la ronge,55.1001,-105.2842,9.14,81,40,3.6,CA,1727405857
210,bryne,58.7354,5.6477,4.81,93,100,0.0,NO,1727406392
211,west end,26.6833,-78.9667,29.47,79,100,13.27,BS,1727406393
212,hermanus,-34.4187,19.2345,13.78,91,83,2.23,ZA,1727405653
213,varadero,23.1536,-81.2514,26.42,87,100,6.53,CU,1727406395
214,terra nova,-12.3667,-40.6667,17.57,90,99,1.62,BR,1727406396
215,polatsk,55.4859,28.7756,17.97,64,100,6.43,BY,1727406398
216,namsos,64.4662,11.4957,4.95,93,100,1.54,NO,1727406194
217,senillosa,-39.0,-68.4167,12.88,16,78,2.98,AR,1727406400
218,yuzhno-kurilsk,44.0306,145.8556,16.68,98,100,4.04,RU,1727406401
219,krotovka,53.2858,51.1686,7.58,42,5,2.57,RU,1727406402
220,jalalabad,34.4265,70.4515,27.0,56,1,1.47,AF,1727406404
221,nurmes,63.5421,29.1397,10.81,96,100,3.05,FI,1727406405
222,san luis de la loma,17.2706,-100.8939,25.46,93,100,4.59,MX,1727406406
223,lihue,21.9789,-159.3672,27.77,71,40,6.69,US,1727406407
224,qaqortoq,60.7167,-46.0333,4.42,85,15,3.94,GL,1727406408
225,ranam,41.7136,129.6844,19.31,56,65,2.59,KP,1727406410
226,guaruja,-23.9931,-46.2564,21.05,26,3,3.28,BR,1727406307
227,mbaiki,3.8678,17.9892,20.78,98,100,0.81,CF,1727406413
228,suva,-18.1416,178.4415,25.71,65,75,6.17,FJ,1727406414
229,alvorada,-12.48,-49.1247,29.26,29,11,1.18,BR,1727406416
230,filadelfia,39.9523,-75.1638,23.14,94,100,2.06,US,1727406417
231,tshikapa,-6.4167,20.8,25.45,58,80,1.14,CD,1727406418
232,christchurch,-43.5333,172.6333,13.11,41,20,1.03,NZ,1727406417
233,sao joaquim,-28.2939,-49.9317,11.66,95,100,0.79,BR,1727406420
234,lucera,41.5082,15.3351,20.4,73,0,4.52,IT,1727406422
235,dunda,-8.1167,34.25,16.22,76,17,0.87,TZ,1727406423
236,erdenet,49.0333,104.0833,2.78,67,100,2.59,MN,1727406424
237,uturoa,-16.7333,-151.4333,26.67,78,8,4.1,PF,1727405884
238,laboulaye,-34.1266,-63.3912,10.53,48,6,4.15,AR,1727406426
239,hawaiian paradise park,19.5933,-154.9731,26.04,83,75,1.54,US,1727406427
240,old town,50.087,14.4202,15.03,88,20,6.17,CZ,1727406428
241,kuanda,56.3161,116.0806,6.19,67,22,2.36,RU,1727406429
242,okha,53.5739,142.9478,11.71,80,100,3.68,RU,1727406430
243,nisko,50.5199,22.1397,21.03,77,100,2.68,PL,1727406432
244,bashanet,-4.2333,35.4167,10.11,95,8,2.15,TZ,1727406434
245,progreso,21.2833,-89.6667,29.42,82,86,1.48,MX,1727406435
246,santa terezinha,-29.9002,-50.0904,16.79,96,100,4.36,BR,1727406436
247,oriximina,-1.7656,-55.8661,28.04,58,29,1.81,BR,1727406437
248,haapsalu,58.9431,23.5414,15.57,94,100,8.98,EE,1727406438
249,mokopane,-24.1944,29.0097,18.75,19,2,0.74,ZA,1727406440
250,muisne,0.6,-80.0333,23.87,83,100,2.88,EC,1727406441
251,kenai,60.5544,-151.2583,9.52,91,100,2.57,US,1727406442
252,sinabang,2.4803,96.3801,29.32,70,50,1.52,ID,1727406443
253,bamboo flat,11.7,92.7167,30.05,79,20,2.06,IN,1727406445
254,al kharijah,25.4514,30.5464,23.19,41,0,3.57,EG,1727406446
255,cosala,24.4125,-106.6908,25.91,78,0,1.33,MX,1727406448
256,trondheim,63.4305,10.3951,6.03,96,100,2.44,NO,1727406449
257,kailua-kona,19.6406,-155.9956,27.38,87,100,2.77,US,1727406451
258,codrington,-38.2667,141.9667,15.54,52,0,2.0,AU,1727406452
259,fort st. john,56.2499,-120.8529,7.95,44,100,1.09,CA,1727406453
260,nanning,22.8167,108.3167,28.25,69,20,1.57,CN,1727406266
261,pahrump,36.2083,-115.9839,28.02,16,0,0.45,US,1727406428
262,stovring,56.8854,9.8384,11.01,95,100,3.23,DK,1727406457
263,kurchatov,51.6601,35.6521,14.0,58,86,5.13,RU,1727406208
264,mercedes,-34.6515,-59.4307,9.88,87,0,3.47,AR,1727406459
265,garoowe,8.4054,48.4845,24.75,57,100,9.86,SO,1727406460
266,sao jose da coroa grande,-8.8978,-35.1478,23.36,87,27,4.38,BR,1727406461
267,walvis bay,-22.9575,14.5053,14.95,76,66,2.25,NA,1727406462
268,valera,9.3178,-70.6036,22.08,95,97,3.28,VE,1727406464
269,tabou,4.423,-7.3528,24.36,91,99,3.28,CI,1727406466
270,quang ngai,15.1167,108.8,30.74,64,87,1.91,VN,1727406467
271,thunder bay,48.4001,-89.3168,14.99,100,0,2.57,CA,1727405873
272,island harbour,50.724,-1.2758,11.68,93,100,3.13,GB,1727406469
273,palikir - national government center,6.9248,158.1611,31.47,66,75,3.09,FM,1727406471
274,monrovia,6.3005,-10.7969,24.98,90,96,3.8,LR,1727406472
275,micheweni,-4.9667,39.8333,23.78,81,15,4.2,TZ,1727406473
276,shalqar,47.8333,59.6,9.39,40,0,3.0,KZ,1727406475
277,diawara,15.022,-12.5437,27.48,76,78,1.78,SN,1727406476
278,eraan,9.0629,117.7016,30.64,63,89,2.53,PH,1727406477
279,yesan,36.6776,126.8427,25.19,63,54,2.48,KR,1727406255
280,ust'-kut,56.7938,105.7672,7.05,42,9,1.19,RU,1727406480
281,pacific grove,36.6177,-121.9166,15.82,94,40,1.54,US,1727406481
282,vernon,50.2581,-119.2691,15.42,66,100,0.89,CA,1727406482
283,zahedan,29.4963,60.8629,18.95,37,0,2.06,IR,1727406483
284,yessentuki,44.0444,42.8606,12.05,94,100,2.91,RU,1727406484
285,orsa,54.5153,30.4053,15.62,85,100,7.77,BY,1727406485
286,peterhead,57.5058,-1.7981,9.61,68,63,12.79,GB,1727406281
287,vila franca do campo,37.7167,-25.4333,21.23,79,100,1.99,PT,1727406489
288,zelenchukskaya,43.858,41.5894,11.93,70,100,2.15,RU,1727406491
289,vredendal,-31.6683,18.5012,11.54,90,88,0.75,ZA,1727406492
290,melilla,35.2937,-2.9383,22.21,73,0,5.14,ES,1727406493
291,jaffa,32.0504,34.7522,23.38,79,20,1.03,IL,1727406495
292,fortuna,40.5982,-124.1573,12.74,85,0,3.6,US,1727406335
293,new norfolk,-42.7826,147.0587,17.18,36,33,1.85,AU,1727406497
294,mossel bay,-34.1831,22.146,15.33,87,36,2.94,ZA,1727406498
295,kamina,-8.7386,24.9906,20.35,44,48,1.54,CD,1727406500
296,mount darwin,-16.7725,31.5838,16.85,39,0,1.3,ZW,1727406501
297,the pas,53.8251,-101.2541,14.1,67,46,9.25,CA,1727406502
298,krasnoshchekovo,51.6708,82.7289,1.93,93,100,2.8,RU,1727406503
299,ambalangoda,6.2355,80.0538,27.6,80,99,7.02,LK,1727406505
300,susuman,62.7833,148.1667,7.95,50,2,1.46,RU,1727406506
301,crane,31.3974,-102.3501,24.17,34,0,4.12,US,1727406507
302,maych'ew,12.7875,39.5422,14.25,64,86,1.16,ET,1727406510
303,dededo village,13.5178,144.8391,30.9,72,40,4.63,GU,1727406511
304,aleg,17.0481,-13.9209,29.82,61,100,4.75,MR,1727406512
305,kuybyshev,55.4475,78.3218,1.0,79,34,2.9,RU,1727406513
306,machico,32.7,-16.7667,22.06,77,20,2.06,PT,1727406514
307,rivera,-30.9053,-55.5508,13.09,97,100,4.39,UY,1727406516
308,petauke,-14.2426,31.3253,19.48,30,0,1.1,ZM,1727406517
309,kamogatacho-kamogata,34.5333,133.5833,30.93,51,100,2.14,JP,1727406518
310,paita,-5.0892,-81.1144,17.23,85,12,4.84,PE,1727406519
311,hammerfest,70.6634,23.6821,6.25,75,75,5.66,NO,1727406520
312,zouerate,22.7187,-12.4521,29.04,40,100,3.75,MR,1727406521
313,geraldton,-28.7667,114.6,17.23,82,100,6.69,AU,1727406522
314,pemangkat,1.1667,108.9667,29.05,69,100,1.25,ID,1727406515
315,puerto yuca,2.9383,-73.2083,23.26,96,58,0.92,CO,1727406524
316,hadibu,12.65,54.0333,25.38,84,89,7.55,YE,1727406526
317,huicungo,-7.2833,-76.8,26.07,55,79,1.51,PE,1727406527
318,santo antonio,-6.3106,-35.4789,20.61,95,80,3.48,BR,1727406528
319,sakaiminato,35.55,133.2333,25.52,77,92,5.68,JP,1727406529
320,daru,-9.0763,143.2092,26.81,85,97,5.02,PG,1727406322
321,papao,-17.75,-149.55,27.82,76,11,3.09,PF,1727406532
322,sungai raya,0.7,108.9,30.42,64,100,1.18,ID,1727406519
323,tual,-5.6667,132.75,27.81,79,92,7.0,ID,1727406534
324,usogorsk,63.4106,48.6872,11.84,55,100,5.26,RU,1727406535
325,lorengau,-2.0226,147.2712,29.8,68,99,2.39,PG,1727406536
326,atafu village,-8.5421,-172.5159,25.18,92,100,7.63,TK,1727406538
327,santo domingo petapa,16.8181,-95.1403,21.9,98,100,1.18,MX,1727406539
328,kavaratti,10.5669,72.642,27.45,82,100,6.4,IN,1727406540
329,fort bragg,35.139,-79.006,24.91,96,100,3.6,US,1727406541
330,oamaru,-45.0784,170.9801,12.43,38,70,6.82,NZ,1727406543
331,dwarka,22.2394,68.9678,27.73,79,100,6.83,IN,1727406544
332,miles city,46.4083,-105.8406,18.54,27,0,5.66,US,1727406545
333,dickinson,29.4608,-95.0513,26.08,67,0,0.0,US,1727406546
334,castillos,-34.1667,-53.8333,13.16,94,100,2.32,UY,1727406547
335,cozumel,20.5083,-86.9458,28.3,86,6,3.4,MX,1727406548
336,hami,42.8,93.45,21.46,31,26,2.89,CN,1727406273
337,inirida,3.8653,-67.9239,23.42,92,83,0.57,CO,1727406551
338,as sulayyil,20.4607,45.5779,27.36,22,100,3.25,SA,1727406554
339,laojunmiao,39.8333,97.7333,17.38,35,54,2.38,CN,1727406493
340,sao raimundo nonato,-9.0153,-42.6994,26.08,41,33,1.91,BR,1727406556
341,sur,22.5667,59.5289,28.87,56,97,2.98,OM,1727406557
342,selkirk,50.1436,-96.8845,22.88,51,0,3.13,CA,1727406558
343,paraty,-23.2178,-44.7131,27.46,40,1,2.5,BR,1727406560
344,nar'yan-mar,67.6713,53.087,11.27,91,93,7.78,RU,1727406313
345,san patricio,28.017,-97.5169,23.97,41,0,1.26,US,1727406562
346,oltinko'l,40.8011,72.1634,18.67,62,100,4.18,UZ,1727406563
347,wusong,30.95,117.7833,27.98,65,41,4.53,CN,1727406564
348,nuku'alofa,-21.1333,-175.2,25.19,78,20,3.6,TO,1727406565
349,tazacorte,28.629,-17.9293,21.54,90,0,4.12,ES,1727406566
350,thakhek,17.4103,104.8307,30.43,69,29,0.83,LA,1727406567
351,enshi,30.3,109.4833,28.38,52,0,0.94,CN,1727406455
352,thinadhoo,0.5333,72.9333,28.08,76,100,8.2,MV,1727406571
353,byron bay,-28.65,153.6167,18.91,71,91,11.13,AU,1727406572
354,maysville,38.6412,-83.7444,21.35,100,100,4.12,US,1727406573
355,vargashi,55.3556,65.8467,8.55,77,53,5.28,RU,1727406576
356,mahibadhoo,3.7833,72.9667,27.7,68,100,7.95,MV,1727406577
357,kez,57.8979,53.7152,6.69,58,9,2.85,RU,1727406578
358,lompoc,34.6391,-120.4579,16.5,88,100,2.57,US,1727406579
359,shingu,33.7333,135.9833,27.14,75,97,5.28,JP,1727406580
360,cadale,2.7603,46.3222,24.94,85,77,7.54,SO,1727406581
361,krasnyye baki,57.131,45.1599,9.8,34,67,3.97,RU,1727406583
362,chulucanas,-5.0925,-80.1625,20.92,74,25,2.61,PE,1727406584
363,kalmunai,7.4167,81.8167,29.61,65,51,2.35,LK,1727406585
364,talnakh,69.4865,88.3972,1.4,95,100,3.46,RU,1727406457
365,general villegas,-35.0328,-63.0125,10.01,45,81,4.23,AR,1727406588
366,st. paul,44.9444,-93.0933,21.14,70,0,3.09,US,1727406476
367,santiago de surco,-12.15,-77.0167,16.71,84,100,2.06,PE,1727406590
368,xinyuan,37.3,99.0,12.68,41,13,1.87,CN,1727406591
369,saldanha,-33.0117,17.9442,12.85,95,33,4.32,ZA,1727406592
370,wankyi,7.7392,-2.1046,22.16,98,100,1.78,GH,1727406593
371,sitka,57.0531,-135.33,8.92,78,99,2.51,US,1727406594
372,yarmouth,41.7057,-70.2286,18.19,95,100,5.14,US,1727406597
373,newman,37.3138,-121.0208,23.35,61,0,3.4,US,1727406598
374,melong,5.1218,9.9614,20.09,99,100,0.78,CM,1727406599
375,twon-brass,4.3151,6.2418,26.23,84,100,6.71,NG,1727406600
376,dalnegorsk,44.5604,135.5701,17.76,48,21,3.0,RU,1727406601
377,belmonte,-15.8631,-38.8828,22.25,78,21,3.13,BR,1727406602
378,westport,41.1415,-73.3579,22.53,90,100,0.89,US,1727406603
379,benicarlo,40.4165,0.4271,22.36,55,68,0.17,ES,1727406605
380,klyuchi,52.2667,79.1667,5.55,56,90,4.2,RU,1727406606
381,trinity beach,-16.7888,145.6968,28.92,69,100,5.66,AU,1727406607
382,praia da vitoria,38.7333,-27.0667,19.92,78,49,2.96,PT,1727406608
383,bocana de paiwas,12.7857,-85.1227,22.39,91,100,1.7,NI,1727406610
384,ca mau,9.1769,105.15,25.96,89,100,1.11,VN,1727406611
385,sao francisco,-15.9486,-44.8644,25.06,31,24,1.23,BR,1727406336
386,ghat,24.9647,10.1728,29.08,37,48,2.54,LY,1727406613
387,namibe,-15.1961,12.1522,19.54,92,68,3.49,AO,1727406615
388,ocean city,39.2776,-74.5746,22.32,91,100,1.34,US,1727406616
389,port isabel,26.0734,-97.2086,26.02,69,0,2.57,US,1727406617
390,weno,7.4515,151.8468,28.96,73,65,3.79,FM,1727406618
391,qarqaraly,49.4058,75.4742,0.72,54,15,2.24,KZ,1727406620
392,tibagi,-24.5094,-50.4136,23.3,44,100,1.55,BR,1727406436
393,chiredzi,-21.05,31.6667,23.32,32,1,1.4,ZW,1727406623
394,zuni pueblo,35.0725,-108.8506,23.58,25,0,3.7,US,1727406624
395,manta,-0.95,-80.7333,22.88,83,75,4.12,EC,1727406606
396,port douglas,-16.4833,145.4667,25.89,67,95,2.87,AU,1727406626
397,kingscliff,-28.2667,153.5667,19.97,88,100,5.66,AU,1727406627
398,gwadar,25.1216,62.3254,26.53,83,92,2.42,PK,1727406630
399,borjomi,41.8527,43.4128,9.77,88,100,2.26,GE,1727406631
400,karlskoga,59.3267,14.5239,9.38,95,100,5.07,SE,1727406633
401,abu,24.6,72.7,27.23,82,100,2.47,IN,1727406634
402,prince rupert,54.3161,-130.3201,7.3,90,100,3.99,CA,1727406636
403,grand falls-windsor,48.9332,-55.6649,6.39,90,9,1.39,CA,1727406435
404,pemba,-12.974,40.5178,22.86,84,0,2.31,MZ,1727406638
405,ozark,37.0209,-93.206,17.91,78,0,3.16,US,1727406639
406,troitsko-pechorsk,62.7084,56.1964,9.71,88,99,3.5,RU,1727406640
407,kehychivka,49.2866,35.7615,15.11,68,52,3.97,UA,1727406642
408,aripuana,-9.1667,-60.6333,27.66,55,96,0.94,BR,1727406643
409,rio segundo,-31.6526,-63.9099,11.59,37,0,2.15,AR,1727406644
410,zhezqazghan,47.7833,67.7667,3.32,52,0,4.0,KZ,1727406645
411,iguape,-24.7081,-47.5553,21.15,93,36,6.97,BR,1727406620
412,mariehamn,60.0973,19.9348,14.92,94,75,4.63,AX,1727406647
413,um jar al gharbiyya,13.8013,32.4078,27.51,65,95,5.46,SD,1727406648
414,tanumah,27.1,44.1333,23.25,33,2,0.61,SA,1727406649
415,holualoa,19.6228,-155.9522,24.75,85,100,2.88,US,1727406650
416,kone,-21.0595,164.8658,29.18,43,74,1.2,NC,1727406651
417,show low,34.2542,-110.0298,19.97,43,43,2.27,US,1727406652
418,zhangye,38.9342,100.4517,22.37,26,2,7.82,CN,1727406654
419,flying fish cove,-10.4217,105.6791,26.82,78,75,4.63,CX,1727406655
420,nassau,40.7507,-73.5829,22.34,95,20,2.57,US,1727406656
421,cape coast,5.1053,-1.2466,24.13,93,100,3.13,GH,1727406657
422,ilhabela,-23.7781,-45.3581,24.96,56,3,1.67,BR,1727406649
423,marsh harbour,26.5412,-77.0636,28.96,84,98,8.88,BS,1727406659
424,nova olinda do norte,-3.8881,-59.0942,23.94,83,78,0.95,BR,1727406660
425,korla,41.7597,86.1469,21.65,30,94,9.49,CN,1727406464
426,cruzeiro do sul,-29.5128,-51.9853,18.07,98,100,2.16,BR,1727406663
427,porto empedocle,37.2934,13.5264,22.71,88,2,2.11,IT,1727406664
428,bayanhongor,46.7167,100.1167,6.88,64,71,1.0,MN,1727406665
429,klaipeda,55.7172,21.1175,17.03,87,100,11.79,LT,1727406502
430,rasht,37.2808,49.5832,18.9,94,75,2.06,IR,1727406667
431,general toshevo,43.7,28.0333,17.29,92,32,1.79,BG,1727406668
432,buala,-8.145,159.5921,28.55,74,72,4.3,SB,1727406670
433,broken hill,-31.95,141.4333,18.21,32,0,6.24,AU,1727406672
434,bodo,67.28,14.405,4.32,92,75,1.03,NO,1727406531
435,midvagur,62.0511,-7.1939,4.46,87,75,8.23,FO,1727406674
436,ago-are,8.5,3.4167,22.2,99,85,2.14,NG,1727406675
437,lamu,-2.2717,40.902,24.37,80,85,5.54,KE,1727406676
438,carutapera,-1.195,-46.02,25.71,82,10,3.37,BR,1727406677
439,malvan,16.0667,73.4667,27.78,81,53,6.15,IN,1727406678
440,pisco,-13.7,-76.2167,17.03,82,100,3.6,PE,1727406679
441,bontang,0.1333,117.5,28.35,75,90,1.8,ID,1727406680
442,sankt augustin,50.7667,7.1833,13.5,78,20,3.09,DE,1727406415
443,la sarre,48.8002,-79.1996,10.82,94,82,1.69,CA,1727406683
444,dryden,49.7833,-92.7503,18.46,65,52,3.9,CA,1727406684
445,nyala,12.05,24.8833,25.38,69,29,2.5,SD,1727406686
446,khandyga,62.6667,135.6,13.07,54,100,4.05,RU,1727406687
447,port augusta,-32.5,137.7667,24.59,14,0,5.71,AU,1727406688
448,cockburn town,21.4612,-71.1419,29.43,76,8,8.12,TC,1727406632
449,saint george's,12.0564,-61.7485,28.11,81,12,3.69,GD,1727406658
450,bridgewater,44.3835,-64.5155,14.26,96,100,2.83,CA,1727406692
451,tondano,1.3038,124.9112,24.05,59,70,1.34,ID,1727406693
452,santa barbara,34.7333,-120.0343,15.55,77,0,2.57,US,1727406689
453,rawson,-43.3002,-65.1023,15.2,19,100,5.02,AR,1727406695
454,paea,-17.6833,-149.5833,27.84,74,40,3.6,PF,1727406588
455,ola,59.5833,151.2833,8.83,69,2,2.84,RU,1727406697
456,georgiyevka,43.0369,74.7114,9.02,93,75,1.0,KZ,1727406698
457,saint-philippe,-21.3585,55.7679,21.48,83,72,6.47,RE,1727406699
458,valday,57.9747,33.2525,14.52,66,100,5.91,RU,1727406701
459,kendari,-3.945,122.4989,31.91,52,39,3.23,ID,1727406703
460,quellon,-43.1167,-73.6167,4.95,84,100,2.14,CL,1727406704
461,acapulco de juarez,16.8634,-99.8901,23.22,97,100,8.18,MX,1727406221
462,alotau,-10.3069,150.4462,29.65,68,100,2.44,PG,1727406266
463,cabo san lucas,22.8909,-109.9124,28.17,66,20,8.05,MX,1727406699
464,tsiombe,-25.3,45.4833,20.51,82,1,2.03,MG,1727406709
465,canon city,38.441,-105.2424,25.41,25,0,3.09,US,1727406710
466,camarinas,43.1311,-9.1817,15.52,73,75,8.5,ES,1727406712
467,farafangana,-22.8167,47.8333,18.75,92,0,1.4,MG,1727406359
468,sibiti,-3.6819,13.3499,20.92,95,100,0.91,CG,1727406715
469,belle fourche,44.6714,-103.8522,24.69,21,28,1.56,US,1727406716
470,akyazi,40.685,30.6222,17.18,75,0,0.74,TR,1727406717
471,kagoro,9.6,8.3833,19.51,86,94,0.93,NG,1727406719
472,santa cruz del norte,23.1539,-81.9236,27.64,84,100,6.89,CU,1727406720
473,tucuma,-0.1833,-50.05,26.28,82,3,4.74,BR,1727406721
474,tidjikja,18.5564,-11.4271,29.61,47,100,3.85,MR,1727406722
475,kuala belait,4.5833,114.1833,28.96,71,99,1.24,BN,1727406723
476,zaysan,47.4667,84.8667,6.96,42,15,4.72,KZ,1727406480
477,vilhena,-12.7406,-60.1458,27.35,38,89,0.93,BR,1727406559
478,sarai naurang,32.8259,70.7814,32.04,42,0,4.52,PK,1727406726
479,withernsea,53.7311,0.0335,11.95,87,99,15.98,GB,1727406727
480,opuwo,-18.0607,13.84,21.88,34,100,1.42,NA,1727406605
481,reggane,26.7158,0.1714,31.75,26,5,3.11,DZ,1727406730
482,freetown,8.484,-13.2299,25.17,88,99,5.25,SL,1727406731
483,meadow lakes,61.6247,-149.6011,10.4,83,100,1.54,US,1727406733
484,hermiston,45.8404,-119.2895,18.32,53,0,1.54,US,1727406594
485,jales,-20.2689,-50.5458,29.58,21,55,3.37,BR,1727406735
486,touros,-5.1989,-35.4608,24.56,78,26,6.74,BR,1727406736
487,idri,27.5,13.2667,27.66,30,0,5.56,LY,1727406737
488,khovd,48.0056,91.6419,6.49,56,100,2.95,MN,1727406738
489,barah,13.7,30.3667,27.39,61,73,4.9,SD,1727406012
490,tottori,35.5,134.2333,26.41,75,93,3.47,JP,1727406459
491,shimoda,34.6667,138.95,25.46,83,100,4.28,JP,1727406452
492,usinsk,65.9939,57.5281,8.08,96,100,7.34,RU,1727406743
493,da nang,16.0678,108.2208,31.99,58,20,1.03,VN,1727406744
494,sincik,38.0368,38.6149,15.72,34,0,4.09,TR,1727406745
495,fort mcmurray,56.7268,-111.381,8.8,60,49,2.35,CA,1727406746
496,sao joao da barra,-21.6403,-41.0511,23.2,80,0,13.44,BR,1727406747
497,columbia,34.0007,-81.0348,23.82,97,75,6.69,US,1727406748
498,chinde,26.8212,87.7095,21.21,98,100,1.49,NP,1727406749
499,grand gaube,-20.0064,57.6608,21.88,84,63,2.68,MU,1727406751
500,shortandy,51.7006,70.9994,4.66,49,100,3.85,KZ,1727406752
501,kipushi,-11.7667,27.2333,16.6,34,0,1.49,CD,1727406753
502,tobelo,1.7284,128.0095,28.66,73,98,1.35,ID,1727406755
503,semey,50.4111,80.2275,3.12,60,100,4.0,KZ,1727406756
504,levuka,50.1834,-105.4011,13.18,56,0,4.18,CA,1727406758
505,san antonio de pale,-1.4014,5.6325,24.93,84,100,5.18,GQ,1727406759
506,rajo khanani,24.9841,68.8536,28.64,71,55,7.53,PK,1727406494
507,shawinigan,46.5668,-72.7491,13.46,94,100,1.64,CA,1727406600
508,kashgar,39.4547,75.9797,22.74,22,6,2.26,CN,1727406464
509,naze,28.3667,129.4833,27.67,79,12,5.56,JP,1727406764
510,menongue,-14.6585,17.691,16.03,25,86,2.02,AO,1727406765
511,olinda,-8.0089,-34.8553,24.85,78,40,3.09,BR,1727406482
512,karapinar,37.716,33.5506,16.15,45,0,1.7,TR,1727406767
513,kencong,-8.2833,113.3667,30.37,60,49,3.65,ID,1727406768
514,gebeit,21.0667,36.3167,25.84,32,42,1.41,SD,1727406769
515,daromehar,24.7946,68.1805,28.55,74,78,8.56,PK,1727406770
516,bengkulu,-3.8004,102.2655,29.78,66,76,4.06,ID,1727406568
517,yantai,37.5333,121.4,22.37,49,0,5.12,CN,1727406489
518,crotone,39.0851,17.1178,21.8,47,0,0.87,IT,1727406532
519,wittmund,53.5667,7.7833,14.03,85,91,8.23,DE,1727406775
520,baharly,38.4362,57.4316,16.91,41,8,1.05,TM,1727406777
521,boguchany,58.3814,97.4531,2.15,79,94,3.77,RU,1727406779
522,baruun-urt,46.6806,113.2792,17.94,42,100,2.75,MN,1727406759
523,mount pleasant,32.7941,-79.8626,27.22,95,75,9.26,US,1727406539
524,chornobay,49.6708,32.3239,16.39,78,100,5.85,UA,1727406782
525,port saint john's,-31.6229,29.5448,16.11,78,62,3.32,ZA,1727406784
526,mount gambier,-37.8333,140.7667,18.06,35,0,1.27,AU,1727406785
527,camborne,50.2131,-5.2973,11.83,94,100,9.77,GB,1727406786
528,bunbury,-33.3333,115.6333,14.32,72,99,5.71,AU,1727406787
529,guateque,5.0062,-73.4727,11.04,96,66,1.9,CO,1727406788
530,polyarnyy,69.1989,33.4478,7.55,85,97,8.13,RU,1727406790
531,st. john's,47.5649,-52.7093,11.65,97,100,2.68,CA,1727406789
532,quakertown,40.4418,-75.3416,21.4,98,75,0.0,US,1727406793
533,sabang,5.8933,95.3214,27.99,78,100,4.26,ID,1727406794
534,chulym,55.0997,80.9572,1.83,84,97,2.98,RU,1727406795
535,mermoz boabab,14.7065,-17.4758,27.02,81,100,3.33,SN,1727406796
536,semikarakorsk,47.5194,40.8112,12.05,54,16,5.01,RU,1727406647
537,nyakahanga,-1.6033,31.1414,15.83,71,21,0.56,TZ,1727406800
538,katsuren-haebaru,26.3369,127.8719,33.21,67,40,7.72,JP,1727406801
539,isabela,6.7085,121.9711,31.03,66,0,2.15,PH,1727406803
540,aurad,18.25,77.4333,24.1,86,95,7.02,IN,1727406804
541,louiseville,46.2559,-72.9415,14.18,83,100,3.29,CA,1727406805
542,taoudenni,22.6783,-3.9836,32.12,32,46,5.87,ML,1727406806
543,constitucion,-35.3333,-72.4167,10.5,76,100,3.42,CL,1727406807
544,ronne,55.1009,14.7066,15.95,88,100,9.77,DK,1727406808
545,ribeira brava,32.65,-17.0667,22.06,72,2,1.61,PT,1727406810
546,nyurba,63.2842,118.3319,6.56,61,69,2.13,RU,1727406812
547,mahina,-17.5065,-149.489,27.87,74,40,3.6,PF,1727406813
548,kununurra,-15.7667,128.7333,33.99,49,20,4.12,AU,1727406814
549,callao,-12.0667,-77.15,17.16,77,100,2.06,PE,1727406616
550,cannonvale,-20.2833,148.7,25.66,65,100,3.97,AU,1727406816
551,pimentel,-6.8367,-79.9342,18.16,77,0,6.69,PE,1727406817
552,palmer,42.1584,-72.3287,18.07,81,100,0.0,US,1727406818
553,ocher,57.8904,54.7202,7.25,57,24,3.3,RU,1727406819
554,champerico,14.3,-91.9167,27.31,78,98,6.21,GT,1727406820
555,prince albert,53.2001,-105.7677,9.94,69,7,3.35,CA,1727406822
556,lobito,-12.3481,13.5456,21.75,89,96,1.05,AO,1727406823
557,howard springs,-12.497,131.047,32.77,69,35,0.87,AU,1727406824
558,mytishchi,55.9089,37.7339,17.2,100,100,6.13,RU,1727406825
559,naifaru,5.4444,73.3657,27.45,79,100,6.13,MV,1727406827
560,nueva gerona,21.8833,-82.8,27.82,81,100,4.34,CU,1727406828
561,ancud,-41.8697,-73.8203,5.66,77,99,4.04,CL,1727406829
562,praia,14.9215,-23.5087,26.3,94,75,2.57,CV,1727406830
563,ausa,41.9271,2.2497,15.86,84,19,1.71,ES,1727406832
564,luanda,-8.8368,13.2343,23.0,83,100,1.03,AO,1727406631
565,ceerigaabo,10.6162,47.368,19.32,64,61,3.55,SO,1727406834
566,siguatepeque,14.6,-87.8333,18.95,97,100,1.85,HN,1727406835
567,sumberpucung,-8.1586,112.4829,31.88,52,46,1.89,ID,1727406655
568,molo,-0.2479,35.7374,10.14,90,61,1.2,KE,1727406837
569,zemio,5.0314,25.1361,20.05,97,76,0.75,CF,1727406838
570,iranshahr,27.2025,60.6848,31.79,30,1,0.62,IR,1727406840
571,okahandja,-21.9833,16.9167,23.03,31,78,2.15,NA,1727406842
572,nefteyugansk,61.0998,72.6035,2.45,74,100,4.44,RU,1727406843
573,mukalla,14.5425,49.1242,26.75,95,50,2.62,YE,1727406629
574,kupang,-10.1667,123.5833,34.32,52,20,6.17,ID,1727406845
575,hotan,37.0997,79.9269,25.35,18,3,5.06,CN,1727406846
576,guajara mirim,-10.7828,-65.3394,25.11,70,93,0.99,BR,1727406847
577,kuala terengganu,5.3302,103.1408,26.49,86,100,1.04,MY,1727406848
578,tasek glugor,5.4803,100.4985,25.42,89,100,1.15,MY,1727406733
579,kruisfontein,-34.0033,24.7314,11.06,82,2,1.96,ZA,1727406850
580,lerwick,60.1545,-1.1494,7.94,69,13,8.91,GB,1727406554
581,nishinoomote,30.7333,131.0,26.68,81,31,10.43,JP,1727406853
582,elizabethtown,37.694,-85.8591,20.07,98,100,4.63,US,1727406854
583,berdigestyakh,62.0989,126.6992,1.28,99,100,3.4,RU,1727406855
584,buka,40.8108,69.1986,16.14,53,100,3.16,UZ,1727406703
